[
  {
    "name": "Asiri Central Hospital",
    "location": "Colombo 10",
    "phone": "+94 11 466 5500",
    "status": "Open",
    "id": 1,
    "latitude": 6.9271,
    "longitude": 79.8612
  },
  {
    "name": "Asiri Surgical Hospital",
    "location": "Colombo 05",
    "phone": "+94 11 452 4400",
    "status": "Open",
    "id": 2,
    "latitude": 60.9271,
    "longitude": 79.8612
  },
  {
    "name": "Asiri Medical Hospital",
    "location": "Colombo 05",
    "phone": "+94 11 452 3300",
    "status": "Open",
    "id": 3,
    "latitude": 80.9271,
    "longitude": 79.8612
  },
  {
    "name": "Aysha Hospital",
    "location": "Colombo 06",
    "phone": "Contact hospital directly",
    "status": "Open",
    "id": 4,
    "latitude": 90.9271,
    "longitude": 79.8612
  },
  {
    "name": "Blue Cross Medical Centre (Blue Cross Hospital)",
    "location": "Rajagiriya (Colombo District)",
    "phone": "+94 112 876 888",
    "status": "Open",
    "id": 5
  },
  {
    "name": "Borella Prison Hospital",
    "location": "Borella, Colombo",
    "phone": "N/A (Government/Specialized)",
    "status": "Open",
    "id": 6
  },
  {
    "name": "Base Hospital, Mulleriyawa",
    "location": "Mulleriyawa (Colombo District)",
    "phone": "Contact hospital directly",
    "status": "Open",
    "id": 7
  },
  {
    "name": "Ceylinco Healthcare Centre",
    "location": "Colombo 02",
    "phone": "+94 11 537 4374",
    "status": "Open",
    "id": 8
  },
  {
    "name": "Colombo South Teaching Hospital (CSTH)",
    "location": "Kalubowila, Dehiwala (Colombo District)",
    "phone": "Contact hospital directly",
    "status": "Open (Government)",
    "id": 9
  },
  {
    "name": "Durdans Hospital",
    "location": "No. 3, Alfred Place, Colombo 03",
    "phone": "+94 11 2140 000",
    "status": "Open (Private)",
    "id": 10
  },
  {
    "name": "Dr. Hudson Silva Eye Hospital",
    "location": "No. 120/12, Vidya Mawatha, Colombo 07",
    "phone": "+94 11 269 3753",
    "status": "Open (Private)",
    "id": 11
  },
  {
    "name": "Delmon Hospital (New Delmon Hospital)",
    "location": "No. 258, Galle Road, Colombo 06",
    "phone": "+94 11 255 8800",
    "status": "Open (Private)",
    "id": 12
  },
  {
    "name": "Golden Key Eye & ENT Hospital",
    "location": "No. 11/3, Cotta Road, Rajagiriya (Colombo District)",
    "phone": "+94 11 288 0288",
    "status": "Open (Private)",
    "id": 13
  },
  {
    "name": "Hemas Hospital - Thalawathugoda",
    "location": "Thalawathugoda (Colombo District)",
    "phone": "+94 11 788 8888",
    "status": "Open (Private)",
    "id": 14
  },
  {
    "name": "Joseph Fraser Memorial Hospital",
    "location": "No. 23, Joseph Fraser Road, Colombo 05",
    "phone": "+94 11 255 6338",
    "status": "Open (Private)",
    "id": 15
  },
  {
    "name": "Kings Hospital Colombo",
    "location": "No. 18/A, Evergreen Park Road, Colombo 05",
    "phone": "+94 11 774 3743",
    "status": "Open (Private)",
    "id": 16
  },
  {
    "name": "Lanka Hospitals PLC",
    "location": "No. 578, Elvitigala Mawatha, Colombo 05",
    "phone": "+94 11 543 0000",
    "status": "Open (Private)",
    "id": 17
  },
  {
    "name": "Lady Ridgeway Hospital for Children (LRH)",
    "location": "Colombo 08",
    "phone": "+94 11 269 1521",
    "status": "Open (Government)",
    "id": 18
  },
  {
    "name": "McCarthy Hospital",
    "location": "No. 14, Wijerama Mawatha, Colombo 07",
    "phone": "+94 11 269 3953",
    "status": "Open (Private)",
    "id": 19
  },
  {
    "name": "Nawaloka Hospitals PLC",
    "location": "No. 23, Deshamanya H.K. Dharmadasa Mawatha, Colombo 02",
    "phone": "+94 11 557 7111",
    "status": "Open (Private)",
    "id": 20,
    "latitude": 6.9207,
    "longitude": 79.8536
  },
  {
    "name": "Ninewells Hospital",
    "location": "No. 55/1, Kirimandala Mawatha, Colombo 05",
    "phone": "+94 11 452 0999",
    "status": "Open (Private)",
    "id": 21
  },
  {
    "name": "National Hospital of Sri Lanka (NHSL)",
    "location": "E. W. Perera Mawatha, Colombo 10",
    "phone": "+94 11 269 1111",
    "status": "Open (Government)",
    "id": 22
  },
  {
    "name": "Oasis Hospital",
    "location": "No. 195, Kirula Rd, Colombo 05",
    "phone": "+94 11 550 6000",
    "status": "Open (Private)",
    "id": 23
  },
  {
    "name": "Pannipitiya Private Hospital",
    "location": "Pannipitiya (Colombo District)",
    "phone": "+94 11 284 0384",
    "status": "Open (Private)",
    "id": 24
  },
  {
    "name": "Royal Hospital (Pvt) Ltd",
    "location": "No. 62, W.A. Silva Mawatha, Colombo 06",
    "phone": "+94 11 259 7565",
    "status": "Open (Private)",
    "id": 25
  },
  {
    "name": "Sri Jayewardenepura General Hospital",
    "location": "Sri Jayawardenepura Kotte (Colombo District)",
    "phone": "+94 11 277 8610",
    "status": "Open (Semi-Government)",
    "id": 26
  },
  {
    "name": "Santa Dora Hospital",
    "location": "Pannipitiya Road, Battaramulla (Colombo District)",
    "phone": "+94 11 287 4874",
    "status": "Open (Private)",
    "id": 27
  },
  {
    "name": "Vasan Eye Care Hospital",
    "location": "Galle Road, Colombo 03",
    "phone": "+94 11 738 8388",
    "status": "Open (Private)",
    "id": 28
  },
  {
    "name": "Western Hospital",
    "location": "No. 218, Cotta Road, Colombo 08",
    "phone": "+94 11 739 2260",
    "status": "Open (Private)",
    "id": 29
  },
  {
    "name": "Winsetha Hospital",
    "location": "No. 245, Avissawella Road, Colombo 10",
    "phone": "+94 11 266 7297",
    "status": "Open (Private)",
    "id": 30
  },
  {
    "name": "Silverline Clinic",
    "location": "Kegalle",
    "phone": "+94 352 111 222",
    "status": "Open",
    "id": 31
  },
  {
    "name": "Medilife Center",
    "location": "Kurunegala",
    "phone": "+94 372 999 444",
    "status": "Closed",
    "id": 32
  },
  {
    "name": "Highland Hospital",
    "location": "Badulla",
    "phone": "+94 552 555 333",
    "status": "Open",
    "id": 33
  },
  {
    "name": "Healing Touch Medical",
    "location": "Ratnapura",
    "phone": "+94 452 222 444",
    "status": "Open",
    "id": 34
  },
  {
    "name": "Healthy Future Clinic",
    "location": "Colombo",
    "phone": "+94 112 321 654",
    "status": "Closed",
    "id": 35
  },
  {
    "name": "Sun Care Hospital",
    "location": "Jaffna",
    "phone": "+94 212 222 888",
    "status": "Open",
    "id": 36
  },
  {
    "name": "BrightMed Hospital",
    "location": "Matara",
    "phone": "+94 412 444 000",
    "status": "Closed",
    "id": 37
  },
  {
    "name": "Unity Health Center",
    "location": "Negombo",
    "phone": "+94 312 345 000",
    "status": "Open",
    "id": 38
  },
  {
    "name": "NovaCare Medical",
    "location": "Kandy",
    "phone": "+94 812 123 456",
    "status": "Open",
    "id": 39
  },
  {
    "name": "LifeBridge Hospital",
    "location": "Galle",
    "phone": "+94 912 111 222",
    "status": "Closed",
    "id": 40
  },
  {
    "name": "City General Hospital",
    "location": "Colombo",
    "phone": "+94 112 345 678",
    "status": "Open",
    "id": 41
  },
  {
    "name": "Sunrise Medical Center",
    "location": "Kandy",
    "phone": "+94 812 234 567",
    "status": "Open",
    "id": 42
  },
  {
    "name": "Lotus Heart Institute",
    "location": "Galle",
    "phone": "+94 912 876 543",
    "status": "Closed",
    "id": 43
  },
  {
    "name": "Blue Cross Hospital",
    "location": "Jaffna",
    "phone": "+94 212 345 123",
    "status": "Open",
    "id": 44
  },
  {
    "name": "Central Health Clinic",
    "location": "Negombo",
    "phone": "+94 312 987 654",
    "status": "Open",
    "id": 45
  },
  {
    "name": "St. Mary's Medical'",
    "location": "Matara",
    "phone": "+94 412 111 999",
    "status": "Closed",
    "id": 46
  },
  {
    "name": "Golden Care Hospital",
    "location": "Colombo",
    "phone": "+94 112 876 555",
    "status": "Open",
    "id": 47
  },
  {
    "name": "Lanka Health Plus",
    "location": "Anuradhapura",
    "phone": "+94 252 222 777",
    "status": "Open",
    "id": 48
  },
  {
    "name": "Ocean View Medical",
    "location": "Trincomalee",
    "phone": "+94 262 555 111",
    "status": "Closed",
    "id": 49
  },
  {
    "name": "Pearl City Hospital",
    "location": "Colombo",
    "phone": "+94 112 123 789",
    "status": "Open",
    "id": 50
  },
  {
    "name": "Silverline Clinic",
    "location": "Kegalle",
    "phone": "+94 352 111 222",
    "status": "Open",
    "id": 51
  },
  {
    "name": "Medilife Center",
    "location": "Kurunegala",
    "phone": "+94 372 999 444",
    "status": "Closed",
    "id": 52
  },
  {
    "name": "Highland Hospital",
    "location": "Badulla",
    "phone": "+94 552 555 333",
    "status": "Open",
    "id": 53
  },
  {
    "name": "Healing Touch Medical",
    "location": "Ratnapura",
    "phone": "+94 452 222 444",
    "status": "Open",
    "id": 54
  },
  {
    "name": "Healthy Future Clinic",
    "location": "Colombo",
    "phone": "+94 112 321 654",
    "status": "Closed",
    "id": 55
  },
  {
    "name": "Sun Care Hospital",
    "location": "Jaffna",
    "phone": "+94 212 222 888",
    "status": "Open",
    "id": 56
  },
  {
    "name": "BrightMed Hospital",
    "location": "Matara",
    "phone": "+94 412 444 000",
    "status": "Closed",
    "id": 57
  },
  {
    "name": "Unity Health Center",
    "location": "Negombo",
    "phone": "+94 312 345 000",
    "status": "Open",
    "id": 58
  },
  {
    "name": "NovaCare Medical",
    "location": "Kandy",
    "phone": "+94 812 123 456",
    "status": "Open",
    "id": 59
  },
  {
    "name": "LifeBridge Hospital",
    "location": "Galle",
    "phone": "+94 912 111 222",
    "status": "Closed",
    "id": 60
  },
  {
    "name": "City General Hospital",
    "location": "Colombo",
    "phone": "+94 112 345 678",
    "status": "Open",
    "id": 61
  },
  {
    "name": "Sunrise Medical Center",
    "location": "Kandy",
    "phone": "+94 812 234 567",
    "status": "Open",
    "id": 62
  },
  {
    "name": "Lotus Heart Institute",
    "location": "Galle",
    "phone": "+94 912 876 543",
    "status": "Closed",
    "id": 63
  },
  {
    "name": "Blue Cross Hospital",
    "location": "Jaffna",
    "phone": "+94 212 345 123",
    "status": "Open",
    "id": 64
  },
  {
    "name": "Central Health Clinic",
    "location": "Negombo",
    "phone": "+94 312 987 654",
    "status": "Open",
    "id": 65
  },
  {
    "name": "St. Mary's Medical'",
    "location": "Matara",
    "phone": "+94 412 111 999",
    "status": "Closed",
    "id": 66
  },
  {
    "name": "Golden Care Hospital",
    "location": "Colombo",
    "phone": "+94 112 876 555",
    "status": "Open",
    "id": 67
  },
  {
    "name": "Lanka Health Plus",
    "location": "Anuradhapura",
    "phone": "+94 252 222 777",
    "status": "Open",
    "id": 68
  },
  {
    "name": "Ocean View Medical",
    "location": "Trincomalee",
    "phone": "+94 262 555 111",
    "status": "Closed",
    "id": 69
  },
  {
    "name": "Pearl City Hospital",
    "location": "Colombo",
    "phone": "+94 112 123 789",
    "status": "Open",
    "id": 70
  },
  {
    "name": "Silverline Clinic",
    "location": "Kegalle",
    "phone": "+94 352 111 222",
    "status": "Open",
    "id": 71
  },
  {
    "name": "Medilife Center",
    "location": "Kurunegala",
    "phone": "+94 372 999 444",
    "status": "Closed",
    "id": 72
  },
  {
    "name": "Highland Hospital",
    "location": "Badulla",
    "phone": "+94 552 555 333",
    "status": "Open",
    "id": 73
  },
  {
    "name": "Healing Touch Medical",
    "location": "Ratnapura",
    "phone": "+94 452 222 444",
    "status": "Open",
    "id": 74
  },
  {
    "name": "Healthy Future Clinic",
    "location": "Colombo",
    "phone": "+94 112 321 654",
    "status": "Closed",
    "id": 75
  },
  {
    "name": "Sun Care Hospital",
    "location": "Jaffna",
    "phone": "+94 212 222 888",
    "status": "Open",
    "id": 76
  },
  {
    "name": "BrightMed Hospital",
    "location": "Matara",
    "phone": "+94 412 444 000",
    "status": "Closed",
    "id": 77
  },
  {
    "name": "Unity Health Center",
    "location": "Negombo",
    "phone": "+94 312 345 000",
    "status": "Open",
    "id": 78
  },
  {
    "name": "NovaCare Medical",
    "location": "Kandy",
    "phone": "+94 812 123 456",
    "status": "Open",
    "id": 79
  },
  {
    "name": "LifeBridge Hospital",
    "location": "Galle",
    "phone": "+94 912 111 222",
    "status": "Closed",
    "id": 80
  },
  {
    "name": "City General Hospital",
    "location": "Colombo",
    "phone": "+94 112 345 678",
    "status": "Open",
    "id": 81
  },
  {
    "name": "Sunrise Medical Center",
    "location": "Kandy",
    "phone": "+94 812 234 567",
    "status": "Open",
    "id": 82
  },
  {
    "name": "Lotus Heart Institute",
    "location": "Galle",
    "phone": "+94 912 876 543",
    "status": "Closed",
    "id": 83
  },
  {
    "name": "Blue Cross Hospital",
    "location": "Jaffna",
    "phone": "+94 212 345 123",
    "status": "Open",
    "id": 84
  },
  {
    "name": "Central Health Clinic",
    "location": "Negombo",
    "phone": "+94 312 987 654",
    "status": "Open",
    "id": 85
  },
  {
    "name": "St. Mary's Medical'",
    "location": "Matara",
    "phone": "+94 412 111 999",
    "status": "Closed",
    "id": 86
  },
  {
    "name": "Golden Care Hospital",
    "location": "Colombo",
    "phone": "+94 112 876 555",
    "status": "Open",
    "id": 87
  },
  {
    "name": "Lanka Health Plus",
    "location": "Anuradhapura",
    "phone": "+94 252 222 777",
    "status": "Open",
    "id": 88
  },
  {
    "name": "Ocean View Medical",
    "location": "Trincomalee",
    "phone": "+94 262 555 111",
    "status": "Closed",
    "id": 89
  },
  {
    "name": "Pearl City Hospital",
    "location": "Colombo",
    "phone": "+94 112 123 789",
    "status": "Open",
    "id": 90
  },
  {
    "name": "Silverline Clinic",
    "location": "Kegalle",
    "phone": "+94 352 111 222",
    "status": "Open",
    "id": 91
  },
  {
    "name": "Medilife Center",
    "location": "Kurunegala",
    "phone": "+94 372 999 444",
    "status": "Closed",
    "id": 92
  },
  {
    "name": "Highland Hospital",
    "location": "Badulla",
    "phone": "+94 552 555 333",
    "status": "Open",
    "id": 93
  },
  {
    "name": "Healing Touch Medical",
    "location": "Ratnapura",
    "phone": "+94 452 222 444",
    "status": "Open",
    "id": 94
  },
  {
    "name": "Healthy Future Clinic",
    "location": "Colombo",
    "phone": "+94 112 321 654",
    "status": "Closed",
    "id": 95
  },
  {
    "name": "Sun Care Hospital",
    "location": "Jaffna",
    "phone": "+94 212 222 888",
    "status": "Open",
    "id": 96
  },
  {
    "name": "BrightMed Hospital",
    "location": "Matara",
    "phone": "+94 412 444 000",
    "status": "Closed",
    "id": 97
  },
  {
    "name": "Unity Health Center",
    "location": "Negombo",
    "phone": "+94 312 345 000",
    "status": "Open",
    "id": 98
  },
  {
    "name": "NovaCare Medical",
    "location": "Kandy",
    "phone": "+94 812 123 456",
    "status": "Open",
    "id": 99
  },
  {
    "name": "LifeBridge Hospital",
    "location": "Galle",
    "phone": "+94 912 111 222",
    "status": "Closed",
    "id": 100
  },
  {
    "name": "City General Hospital",
    "location": "Colombo",
    "phone": "+94 112 345 678",
    "status": "Open",
    "id": 101
  },
  {
    "name": "Sunrise Medical Center",
    "location": "Kandy",
    "phone": "+94 812 234 567",
    "status": "Open",
    "id": 102
  },
  {
    "name": "Lotus Heart Institute",
    "location": "Galle",
    "phone": "+94 912 876 543",
    "status": "Closed",
    "id": 103
  },
  {
    "name": "Blue Cross Hospital",
    "location": "Jaffna",
    "phone": "+94 212 345 123",
    "status": "Open",
    "id": 104
  },
  {
    "name": "Central Health Clinic",
    "location": "Negombo",
    "phone": "+94 312 987 654",
    "status": "Open",
    "id": 105
  },
  {
    "name": "St. Mary's Medical'",
    "location": "Matara",
    "phone": "+94 412 111 999",
    "status": "Closed",
    "id": 106
  },
  {
    "name": "Golden Care Hospital",
    "location": "Colombo",
    "phone": "+94 112 876 555",
    "status": "Open",
    "id": 107
  },
  {
    "name": "Lanka Health Plus",
    "location": "Anuradhapura",
    "phone": "+94 252 222 777",
    "status": "Open",
    "id": 108
  },
  {
    "name": "Ocean View Medical",
    "location": "Trincomalee",
    "phone": "+94 262 555 111",
    "status": "Closed",
    "id": 109
  },
  {
    "name": "Pearl City Hospital",
    "location": "Colombo",
    "phone": "+94 112 123 789",
    "status": "Open",
    "id": 110
  },
  {
    "name": "Silverline Clinic",
    "location": "Kegalle",
    "phone": "+94 352 111 222",
    "status": "Open",
    "id": 111
  },
  {
    "name": "Medilife Center",
    "location": "Kurunegala",
    "phone": "+94 372 999 444",
    "status": "Closed",
    "id": 112
  },
  {
    "name": "Highland Hospital",
    "location": "Badulla",
    "phone": "+94 552 555 333",
    "status": "Open",
    "id": 113
  },
  {
    "name": "Healing Touch Medical",
    "location": "Ratnapura",
    "phone": "+94 452 222 444",
    "status": "Open",
    "id": 114
  },
  {
    "name": "Healthy Future Clinic",
    "location": "Colombo",
    "phone": "+94 112 321 654",
    "status": "Closed",
    "id": 115
  },
  {
    "name": "Sun Care Hospital",
    "location": "Jaffna",
    "phone": "+94 212 222 888",
    "status": "Open",
    "id": 116
  },
  {
    "name": "BrightMed Hospital",
    "location": "Matara",
    "phone": "+94 412 444 000",
    "status": "Closed",
    "id": 117
  },
  {
    "name": "Unity Health Center",
    "location": "Negombo",
    "phone": "+94 312 345 000",
    "status": "Open",
    "id": 118
  },
  {
    "name": "NovaCare Medical",
    "location": "Kandy",
    "phone": "+94 812 123 456",
    "status": "Open",
    "id": 119
  },
  {
    "name": "LifeBridge Hospital",
    "location": "Galle",
    "phone": "+94 912 111 222",
    "status": "Closed",
    "id": 120
  },
  {
    "name": "City General Hospital",
    "location": "Colombo",
    "phone": "+94 112 345 678",
    "status": "Open",
    "id": 121
  },
  {
    "name": "Sunrise Medical Center",
    "location": "Kandy",
    "phone": "+94 812 234 567",
    "status": "Open",
    "id": 122
  },
  {
    "name": "Lotus Heart Institute",
    "location": "Galle",
    "phone": "+94 912 876 543",
    "status": "Closed",
    "id": 123
  },
  {
    "name": "Blue Cross Hospital",
    "location": "Jaffna",
    "phone": "+94 212 345 123",
    "status": "Open",
    "id": 124
  },
  {
    "name": "Central Health Clinic",
    "location": "Negombo",
    "phone": "+94 312 987 654",
    "status": "Open",
    "id": 125
  },
  {
    "name": "St. Mary's Medical'",
    "location": "Matara",
    "phone": "+94 412 111 999",
    "status": "Closed",
    "id": 126
  },
  {
    "name": "Golden Care Hospital",
    "location": "Colombo",
    "phone": "+94 112 876 555",
    "status": "Open",
    "id": 127
  },
  {
    "name": "Lanka Health Plus",
    "location": "Anuradhapura",
    "phone": "+94 252 222 777",
    "status": "Open",
    "id": 128
  },
  {
    "name": "Ocean View Medical",
    "location": "Trincomalee",
    "phone": "+94 262 555 111",
    "status": "Closed",
    "id": 129
  },
  {
    "name": "Pearl City Hospital",
    "location": "Colombo",
    "phone": "+94 112 123 789",
    "status": "Open",
    "id": 130
  },
  {
    "name": "Silverline Clinic",
    "location": "Kegalle",
    "phone": "+94 352 111 222",
    "status": "Open",
    "id": 131
  },
  {
    "name": "Medilife Center",
    "location": "Kurunegala",
    "phone": "+94 372 999 444",
    "status": "Closed",
    "id": 132
  },
  {
    "name": "Highland Hospital",
    "location": "Badulla",
    "phone": "+94 552 555 333",
    "status": "Open",
    "id": 133
  },
  {
    "name": "Healing Touch Medical",
    "location": "Ratnapura",
    "phone": "+94 452 222 444",
    "status": "Open",
    "id": 134
  },
  {
    "name": "Healthy Future Clinic",
    "location": "Colombo",
    "phone": "+94 112 321 654",
    "status": "Closed",
    "id": 135
  },
  {
    "name": "Sun Care Hospital",
    "location": "Jaffna",
    "phone": "+94 212 222 888",
    "status": "Open",
    "id": 136
  },
  {
    "name": "BrightMed Hospital",
    "location": "Matara",
    "phone": "+94 412 444 000",
    "status": "Closed",
    "id": 137
  },
  {
    "name": "Unity Health Center",
    "location": "Negombo",
    "phone": "+94 312 345 000",
    "status": "Open",
    "id": 138
  },
  {
    "name": "NovaCare Medical",
    "location": "Kandy",
    "phone": "+94 812 123 456",
    "status": "Open",
    "id": 139
  },
  {
    "name": "LifeBridge Hospital",
    "location": "Galle",
    "phone": "+94 912 111 222",
    "status": "Closed",
    "id": 140
  },
  {
    "name": "City General Hospital",
    "location": "Colombo",
    "phone": "+94 112 345 678",
    "status": "Open",
    "id": 141
  },
  {
    "name": "Sunrise Medical Center",
    "location": "Kandy",
    "phone": "+94 812 234 567",
    "status": "Open",
    "id": 142
  },
  {
    "name": "Lotus Heart Institute",
    "location": "Galle",
    "phone": "+94 912 876 543",
    "status": "Closed",
    "id": 143
  },
  {
    "name": "Blue Cross Hospital",
    "location": "Jaffna",
    "phone": "+94 212 345 123",
    "status": "Open",
    "id": 144
  },
  {
    "name": "Central Health Clinic",
    "location": "Negombo",
    "phone": "+94 312 987 654",
    "status": "Open",
    "id": 145
  },
  {
    "name": "St. Mary's Medical'",
    "location": "Matara",
    "phone": "+94 412 111 999",
    "status": "Closed",
    "id": 146
  },
  {
    "name": "Golden Care Hospital",
    "location": "Colombo",
    "phone": "+94 112 876 555",
    "status": "Open",
    "id": 147
  },
  {
    "name": "Lanka Health Plus",
    "location": "Anuradhapura",
    "phone": "+94 252 222 777",
    "status": "Open",
    "id": 148
  },
  {
    "name": "Ocean View Medical",
    "location": "Trincomalee",
    "phone": "+94 262 555 111",
    "status": "Closed",
    "id": 149
  },
  {
    "name": "Pearl City Hospital",
    "location": "Colombo",
    "phone": "+94 112 123 789",
    "status": "Open",
    "id": 150
  },
  {
    "name": "Silverline Clinic",
    "location": "Kegalle",
    "phone": "+94 352 111 222",
    "status": "Open",
    "id": 151
  },
  {
    "name": "Medilife Center",
    "location": "Kurunegala",
    "phone": "+94 372 999 444",
    "status": "Closed",
    "id": 152
  },
  {
    "name": "Highland Hospital",
    "location": "Badulla",
    "phone": "+94 552 555 333",
    "status": "Open",
    "id": 153
  },
  {
    "name": "Healing Touch Medical",
    "location": "Ratnapura",
    "phone": "+94 452 222 444",
    "status": "Open",
    "id": 154
  },
  {
    "name": "Healthy Future Clinic",
    "location": "Colombo",
    "phone": "+94 112 321 654",
    "status": "Closed",
    "id": 155
  },
  {
    "name": "Sun Care Hospital",
    "location": "Jaffna",
    "phone": "+94 212 222 888",
    "status": "Open",
    "id": 156
  },
  {
    "name": "BrightMed Hospital",
    "location": "Matara",
    "phone": "+94 412 444 000",
    "status": "Closed",
    "id": 157
  },
  {
    "name": "Unity Health Center",
    "location": "Negombo",
    "phone": "+94 312 345 000",
    "status": "Open",
    "id": 158
  },
  {
    "name": "NovaCare Medical",
    "location": "Kandy",
    "phone": "+94 812 123 456",
    "status": "Open",
    "id": 159
  },
  {
    "name": "LifeBridge Hospital",
    "location": "Galle",
    "phone": "+94 912 111 222",
    "status": "Closed",
    "id": 160
  },
  {
    "name": "City General Hospital",
    "location": "Colombo",
    "phone": "+94 112 345 678",
    "status": "Open",
    "id": 161
  },
  {
    "name": "Sunrise Medical Center",
    "location": "Kandy",
    "phone": "+94 812 234 567",
    "status": "Open",
    "id": 162
  },
  {
    "name": "Lotus Heart Institute",
    "location": "Galle",
    "phone": "+94 912 876 543",
    "status": "Closed",
    "id": 163
  },
  {
    "name": "Blue Cross Hospital",
    "location": "Jaffna",
    "phone": "+94 212 345 123",
    "status": "Open",
    "id": 164
  },
  {
    "name": "Central Health Clinic",
    "location": "Negombo",
    "phone": "+94 312 987 654",
    "status": "Open",
    "id": 165
  },
  {
    "name": "St. Mary's Medical'",
    "location": "Matara",
    "phone": "+94 412 111 999",
    "status": "Closed",
    "id": 166
  },
  {
    "name": "Golden Care Hospital",
    "location": "Colombo",
    "phone": "+94 112 876 555",
    "status": "Open",
    "id": 167
  },
  {
    "name": "Lanka Health Plus",
    "location": "Anuradhapura",
    "phone": "+94 252 222 777",
    "status": "Open",
    "id": 168
  },
  {
    "name": "Ocean View Medical",
    "location": "Trincomalee",
    "phone": "+94 262 555 111",
    "status": "Closed",
    "id": 169
  },
  {
    "name": "Pearl City Hospital",
    "location": "Colombo",
    "phone": "+94 112 123 789",
    "status": "Open",
    "id": 170
  },
  {
    "name": "Silverline Clinic",
    "location": "Kegalle",
    "phone": "+94 352 111 222",
    "status": "Open",
    "id": 171
  },
  {
    "name": "Medilife Center",
    "location": "Kurunegala",
    "phone": "+94 372 999 444",
    "status": "Closed",
    "id": 172
  },
  {
    "name": "Highland Hospital",
    "location": "Badulla",
    "phone": "+94 552 555 333",
    "status": "Open",
    "id": 173
  },
  {
    "name": "Healing Touch Medical",
    "location": "Ratnapura",
    "phone": "+94 452 222 444",
    "status": "Open",
    "id": 174
  },
  {
    "name": "Healthy Future Clinic",
    "location": "Colombo",
    "phone": "+94 112 321 654",
    "status": "Closed",
    "id": 175
  },
  {
    "name": "Sun Care Hospital",
    "location": "Jaffna",
    "phone": "+94 212 222 888",
    "status": "Open",
    "id": 176
  },
  {
    "name": "BrightMed Hospital",
    "location": "Matara",
    "phone": "+94 412 444 000",
    "status": "Closed",
    "id": 177
  },
  {
    "name": "Unity Health Center",
    "location": "Negombo",
    "phone": "+94 312 345 000",
    "status": "Open",
    "id": 178
  },
  {
    "name": "NovaCare Medical",
    "location": "Kandy",
    "phone": "+94 812 123 456",
    "status": "Open",
    "id": 179
  },
  {
    "name": "LifeBridge Hospital",
    "location": "Galle",
    "phone": "+94 912 111 222",
    "status": "Closed",
    "id": 180
  },
  {
    "name": "City General Hospital",
    "location": "Colombo",
    "phone": "+94 112 345 678",
    "status": "Open",
    "id": 181
  },
  {
    "name": "Sunrise Medical Center",
    "location": "Kandy",
    "phone": "+94 812 234 567",
    "status": "Open",
    "id": 182
  },
  {
    "name": "Lotus Heart Institute",
    "location": "Galle",
    "phone": "+94 912 876 543",
    "status": "Closed",
    "id": 183
  },
  {
    "name": "Blue Cross Hospital",
    "location": "Jaffna",
    "phone": "+94 212 345 123",
    "status": "Open",
    "id": 184
  },
  {
    "name": "Central Health Clinic",
    "location": "Negombo",
    "phone": "+94 312 987 654",
    "status": "Open",
    "id": 185
  },
  {
    "name": "St. Mary's Medical'",
    "location": "Matara",
    "phone": "+94 412 111 999",
    "status": "Closed",
    "id": 186
  },
  {
    "name": "Golden Care Hospital",
    "location": "Colombo",
    "phone": "+94 112 876 555",
    "status": "Open",
    "id": 187
  },
  {
    "name": "Lanka Health Plus",
    "location": "Anuradhapura",
    "phone": "+94 252 222 777",
    "status": "Open",
    "id": 188
  },
  {
    "name": "Ocean View Medical",
    "location": "Trincomalee",
    "phone": "+94 262 555 111",
    "status": "Closed",
    "id": 189
  },
  {
    "name": "Pearl City Hospital",
    "location": "Colombo",
    "phone": "+94 112 123 789",
    "status": "Open",
    "id": 190
  },
  {
    "name": "Silverline Clinic",
    "location": "Kegalle",
    "phone": "+94 352 111 222",
    "status": "Open",
    "id": 191
  },
  {
    "name": "Medilife Center",
    "location": "Kurunegala",
    "phone": "+94 372 999 444",
    "status": "Closed",
    "id": 192
  },
  {
    "name": "Highland Hospital",
    "location": "Badulla",
    "phone": "+94 552 555 333",
    "status": "Open",
    "id": 193
  },
  {
    "name": "Healing Touch Medical",
    "location": "Ratnapura",
    "phone": "+94 452 222 444",
    "status": "Open",
    "id": 194
  },
  {
    "name": "Healthy Future Clinic",
    "location": "Colombo",
    "phone": "+94 112 321 654",
    "status": "Closed",
    "id": 195
  },
  {
    "name": "Sun Care Hospital",
    "location": "Jaffna",
    "phone": "+94 212 222 888",
    "status": "Open",
    "id": 196
  },
  {
    "name": "BrightMed Hospital",
    "location": "Matara",
    "phone": "+94 412 444 000",
    "status": "Closed",
    "id": 197
  },
  {
    "name": "Unity Health Center",
    "location": "Negombo",
    "phone": "+94 312 345 000",
    "status": "Open",
    "id": 198
  },
  {
    "name": "NovaCare Medical",
    "location": "Kandy",
    "phone": "+94 812 123 456",
    "status": "Open",
    "id": 199
  },
  {
    "name": "LifeBridge Hospital",
    "location": "Galle",
    "phone": "+94 912 111 222",
    "status": "Closed",
    "id": 200
  },
  {
    "name": "City General Hospital",
    "location": "Colombo",
    "phone": "+94 112 345 678",
    "status": "Open",
    "id": 201
  },
  {
    "name": "Sunrise Medical Center",
    "location": "Kandy",
    "phone": "+94 812 234 567",
    "status": "Open",
    "id": 202
  },
  {
    "name": "Lotus Heart Institute",
    "location": "Galle",
    "phone": "+94 912 876 543",
    "status": "Closed",
    "id": 203
  },
  {
    "name": "Blue Cross Hospital",
    "location": "Jaffna",
    "phone": "+94 212 345 123",
    "status": "Open",
    "id": 204
  },
  {
    "name": "Central Health Clinic",
    "location": "Negombo",
    "phone": "+94 312 987 654",
    "status": "Open",
    "id": 205
  },
  {
    "name": "St. Mary's Medical'",
    "location": "Matara",
    "phone": "+94 412 111 999",
    "status": "Closed",
    "id": 206
  },
  {
    "name": "Golden Care Hospital",
    "location": "Colombo",
    "phone": "+94 112 876 555",
    "status": "Open",
    "id": 207
  },
  {
    "name": "Lanka Health Plus",
    "location": "Anuradhapura",
    "phone": "+94 252 222 777",
    "status": "Open",
    "id": 208
  },
  {
    "name": "Ocean View Medical",
    "location": "Trincomalee",
    "phone": "+94 262 555 111",
    "status": "Closed",
    "id": 209
  },
  {
    "name": "Pearl City Hospital",
    "location": "Colombo",
    "phone": "+94 112 123 789",
    "status": "Open",
    "id": 210
  },
  {
    "name": "Silverline Clinic",
    "location": "Kegalle",
    "phone": "+94 352 111 222",
    "status": "Open",
    "id": 211
  },
  {
    "name": "Medilife Center",
    "location": "Kurunegala",
    "phone": "+94 372 999 444",
    "status": "Closed",
    "id": 212
  },
  {
    "name": "Highland Hospital",
    "location": "Badulla",
    "phone": "+94 552 555 333",
    "status": "Open",
    "id": 213
  },
  {
    "name": "Healing Touch Medical",
    "location": "Ratnapura",
    "phone": "+94 452 222 444",
    "status": "Open",
    "id": 214
  },
  {
    "name": "Healthy Future Clinic",
    "location": "Colombo",
    "phone": "+94 112 321 654",
    "status": "Closed",
    "id": 215
  },
  {
    "name": "Sun Care Hospital",
    "location": "Jaffna",
    "phone": "+94 212 222 888",
    "status": "Open",
    "id": 216
  },
  {
    "name": "BrightMed Hospital",
    "location": "Matara",
    "phone": "+94 412 444 000",
    "status": "Closed",
    "id": 217
  },
  {
    "name": "Unity Health Center",
    "location": "Negombo",
    "phone": "+94 312 345 000",
    "status": "Open",
    "id": 218
  },
  {
    "name": "NovaCare Medical",
    "location": "Kandy",
    "phone": "+94 812 123 456",
    "status": "Open",
    "id": 219
  },
  {
    "name": "LifeBridge Hospital",
    "location": "Galle",
    "phone": "+94 912 111 222",
    "status": "Closed",
    "id": 220
  },
  {
    "name": "City General Hospital",
    "location": "Colombo",
    "phone": "+94 112 345 678",
    "status": "Open",
    "id": 221
  },
  {
    "name": "Sunrise Medical Center",
    "location": "Kandy",
    "phone": "+94 812 234 567",
    "status": "Open",
    "id": 222
  },
  {
    "name": "Lotus Heart Institute",
    "location": "Galle",
    "phone": "+94 912 876 543",
    "status": "Closed",
    "id": 223
  },
  {
    "name": "Blue Cross Hospital",
    "location": "Jaffna",
    "phone": "+94 212 345 123",
    "status": "Open",
    "id": 224
  },
  {
    "name": "Central Health Clinic",
    "location": "Negombo",
    "phone": "+94 312 987 654",
    "status": "Open",
    "id": 225
  },
  {
    "name": "St. Mary's Medical'",
    "location": "Matara",
    "phone": "+94 412 111 999",
    "status": "Closed",
    "id": 226
  },
  {
    "name": "Golden Care Hospital",
    "location": "Colombo",
    "phone": "+94 112 876 555",
    "status": "Open",
    "id": 227
  },
  {
    "name": "Lanka Health Plus",
    "location": "Anuradhapura",
    "phone": "+94 252 222 777",
    "status": "Open",
    "id": 228
  },
  {
    "name": "Ocean View Medical",
    "location": "Trincomalee",
    "phone": "+94 262 555 111",
    "status": "Closed",
    "id": 229
  },
  {
    "name": "Pearl City Hospital",
    "location": "Colombo",
    "phone": "+94 112 123 789",
    "status": "Open",
    "id": 230
  },
  {
    "name": "Silverline Clinic",
    "location": "Kegalle",
    "phone": "+94 352 111 222",
    "status": "Open",
    "id": 231
  },
  {
    "name": "Medilife Center",
    "location": "Kurunegala",
    "phone": "+94 372 999 444",
    "status": "Closed",
    "id": 232
  },
  {
    "name": "Highland Hospital",
    "location": "Badulla",
    "phone": "+94 552 555 333",
    "status": "Open",
    "id": 233
  },
  {
    "name": "Healing Touch Medical",
    "location": "Ratnapura",
    "phone": "+94 452 222 444",
    "status": "Open",
    "id": 234
  },
  {
    "name": "Healthy Future Clinic",
    "location": "Colombo",
    "phone": "+94 112 321 654",
    "status": "Closed",
    "id": 235
  },
  {
    "name": "Sun Care Hospital",
    "location": "Jaffna",
    "phone": "+94 212 222 888",
    "status": "Open",
    "id": 236
  },
  {
    "name": "BrightMed Hospital",
    "location": "Matara",
    "phone": "+94 412 444 000",
    "status": "Closed",
    "id": 237
  },
  {
    "name": "Unity Health Center",
    "location": "Negombo",
    "phone": "+94 312 345 000",
    "status": "Open",
    "id": 238
  },
  {
    "name": "NovaCare Medical",
    "location": "Kandy",
    "phone": "+94 812 123 456",
    "status": "Open",
    "id": 239
  },
  {
    "name": "LifeBridge Hospital",
    "location": "Galle",
    "phone": "+94 912 111 222",
    "status": "Closed",
    "id": 240
  },
  {
    "name": "City General Hospital",
    "location": "Colombo",
    "phone": "+94 112 345 678",
    "status": "Open",
    "id": 241
  },
  {
    "name": "Sunrise Medical Center",
    "location": "Kandy",
    "phone": "+94 812 234 567",
    "status": "Open",
    "id": 242
  },
  {
    "name": "Lotus Heart Institute",
    "location": "Galle",
    "phone": "+94 912 876 543",
    "status": "Closed",
    "id": 243
  },
  {
    "name": "Blue Cross Hospital",
    "location": "Jaffna",
    "phone": "+94 212 345 123",
    "status": "Open",
    "id": 244
  },
  {
    "name": "Central Health Clinic",
    "location": "Negombo",
    "phone": "+94 312 987 654",
    "status": "Open",
    "id": 245
  },
  {
    "name": "St. Mary's Medical'",
    "location": "Matara",
    "phone": "+94 412 111 999",
    "status": "Closed",
    "id": 246
  },
  {
    "name": "Golden Care Hospital",
    "location": "Colombo",
    "phone": "+94 112 876 555",
    "status": "Open",
    "id": 247
  },
  {
    "name": "Lanka Health Plus",
    "location": "Anuradhapura",
    "phone": "+94 252 222 777",
    "status": "Open",
    "id": 248
  },
  {
    "name": "Ocean View Medical",
    "location": "Trincomalee",
    "phone": "+94 262 555 111",
    "status": "Closed",
    "id": 249
  },
  {
    "name": "Pearl City Hospital",
    "location": "Colombo",
    "phone": "+94 112 123 789",
    "status": "Open",
    "id": 250
  },
  {
    "name": "Silverline Clinic",
    "location": "Kegalle",
    "phone": "+94 352 111 222",
    "status": "Open",
    "id": 251
  },
  {
    "name": "Medilife Center",
    "location": "Kurunegala",
    "phone": "+94 372 999 444",
    "status": "Closed",
    "id": 252
  },
  {
    "name": "Highland Hospital",
    "location": "Badulla",
    "phone": "+94 552 555 333",
    "status": "Open",
    "id": 253
  },
  {
    "name": "Healing Touch Medical",
    "location": "Ratnapura",
    "phone": "+94 452 222 444",
    "status": "Open",
    "id": 254
  },
  {
    "name": "Healthy Future Clinic",
    "location": "Colombo",
    "phone": "+94 112 321 654",
    "status": "Closed",
    "id": 255
  },
  {
    "name": "Sun Care Hospital",
    "location": "Jaffna",
    "phone": "+94 212 222 888",
    "status": "Open",
    "id": 256
  },
  {
    "name": "BrightMed Hospital",
    "location": "Matara",
    "phone": "+94 412 444 000",
    "status": "Closed",
    "id": 257
  },
  {
    "name": "Unity Health Center",
    "location": "Negombo",
    "phone": "+94 312 345 000",
    "status": "Open",
    "id": 258
  },
  {
    "name": "NovaCare Medical",
    "location": "Kandy",
    "phone": "+94 812 123 456",
    "status": "Open",
    "id": 259
  },
  {
    "name": "LifeBridge Hospital",
    "location": "Galle",
    "phone": "+94 912 111 222",
    "status": "Closed",
    "id": 260
  },
  {
    "name": "City General Hospital",
    "location": "Colombo",
    "phone": "+94 112 345 678",
    "status": "Open",
    "id": 261
  },
  {
    "name": "Sunrise Medical Center",
    "location": "Kandy",
    "phone": "+94 812 234 567",
    "status": "Open",
    "id": 262
  },
  {
    "name": "Lotus Heart Institute",
    "location": "Galle",
    "phone": "+94 912 876 543",
    "status": "Closed",
    "id": 263
  },
  {
    "name": "Blue Cross Hospital",
    "location": "Jaffna",
    "phone": "+94 212 345 123",
    "status": "Open",
    "id": 264
  },
  {
    "name": "Central Health Clinic",
    "location": "Negombo",
    "phone": "+94 312 987 654",
    "status": "Open",
    "id": 265
  },
  {
    "name": "St. Mary's Medical'",
    "location": "Matara",
    "phone": "+94 412 111 999",
    "status": "Closed",
    "id": 266
  },
  {
    "name": "Golden Care Hospital",
    "location": "Colombo",
    "phone": "+94 112 876 555",
    "status": "Open",
    "id": 267
  },
  {
    "name": "Lanka Health Plus",
    "location": "Anuradhapura",
    "phone": "+94 252 222 777",
    "status": "Open",
    "id": 268
  },
  {
    "name": "Ocean View Medical",
    "location": "Trincomalee",
    "phone": "+94 262 555 111",
    "status": "Closed",
    "id": 269
  },
  {
    "name": "Pearl City Hospital",
    "location": "Colombo",
    "phone": "+94 112 123 789",
    "status": "Open",
    "id": 270
  },
  {
    "name": "Silverline Clinic",
    "location": "Kegalle",
    "phone": "+94 352 111 222",
    "status": "Open",
    "id": 271
  },
  {
    "name": "Medilife Center",
    "location": "Kurunegala",
    "phone": "+94 372 999 444",
    "status": "Closed",
    "id": 272
  },
  {
    "name": "Highland Hospital",
    "location": "Badulla",
    "phone": "+94 552 555 333",
    "status": "Open",
    "id": 273
  },
  {
    "name": "Healing Touch Medical",
    "location": "Ratnapura",
    "phone": "+94 452 222 444",
    "status": "Open",
    "id": 274
  },
  {
    "name": "Healthy Future Clinic",
    "location": "Colombo",
    "phone": "+94 112 321 654",
    "status": "Closed",
    "id": 275
  },
  {
    "name": "Sun Care Hospital",
    "location": "Jaffna",
    "phone": "+94 212 222 888",
    "status": "Open",
    "id": 276
  },
  {
    "name": "BrightMed Hospital",
    "location": "Matara",
    "phone": "+94 412 444 000",
    "status": "Closed",
    "id": 277
  },
  {
    "name": "Unity Health Center",
    "location": "Negombo",
    "phone": "+94 312 345 000",
    "status": "Open",
    "id": 278
  },
  {
    "name": "NovaCare Medical",
    "location": "Kandy",
    "phone": "+94 812 123 456",
    "status": "Open",
    "id": 279
  },
  {
    "name": "LifeBridge Hospital",
    "location": "Galle",
    "phone": "+94 912 111 222",
    "status": "Closed",
    "id": 280
  },
  {
    "name": "City General Hospital",
    "location": "Colombo",
    "phone": "+94 112 345 678",
    "status": "Open",
    "id": 281
  },
  {
    "name": "Sunrise Medical Center",
    "location": "Kandy",
    "phone": "+94 812 234 567",
    "status": "Open",
    "id": 282
  },
  {
    "name": "Lotus Heart Institute",
    "location": "Galle",
    "phone": "+94 912 876 543",
    "status": "Closed",
    "id": 283
  },
  {
    "name": "Blue Cross Hospital",
    "location": "Jaffna",
    "phone": "+94 212 345 123",
    "status": "Open",
    "id": 284
  },
  {
    "name": "Central Health Clinic",
    "location": "Negombo",
    "phone": "+94 312 987 654",
    "status": "Open",
    "id": 285
  },
  {
    "name": "St. Mary's Medical'",
    "location": "Matara",
    "phone": "+94 412 111 999",
    "status": "Closed",
    "id": 286
  },
  {
    "name": "Golden Care Hospital",
    "location": "Colombo",
    "phone": "+94 112 876 555",
    "status": "Open",
    "id": 287
  },
  {
    "name": "Lanka Health Plus",
    "location": "Anuradhapura",
    "phone": "+94 252 222 777",
    "status": "Open",
    "id": 288
  },
  {
    "name": "Ocean View Medical",
    "location": "Trincomalee",
    "phone": "+94 262 555 111",
    "status": "Closed",
    "id": 289
  },
  {
    "name": "Pearl City Hospital",
    "location": "Colombo",
    "phone": "+94 112 123 789",
    "status": "Open",
    "id": 290
  },
  {
    "name": "Silverline Clinic",
    "location": "Kegalle",
    "phone": "+94 352 111 222",
    "status": "Open",
    "id": 291
  },
  {
    "name": "Medilife Center",
    "location": "Kurunegala",
    "phone": "+94 372 999 444",
    "status": "Closed",
    "id": 292
  },
  {
    "name": "Highland Hospital",
    "location": "Badulla",
    "phone": "+94 552 555 333",
    "status": "Open",
    "id": 293
  },
  {
    "name": "Healing Touch Medical",
    "location": "Ratnapura",
    "phone": "+94 452 222 444",
    "status": "Open",
    "id": 294
  },
  {
    "name": "Healthy Future Clinic",
    "location": "Colombo",
    "phone": "+94 112 321 654",
    "status": "Closed",
    "id": 295
  },
  {
    "name": "Sun Care Hospital",
    "location": "Jaffna",
    "phone": "+94 212 222 888",
    "status": "Open",
    "id": 296
  },
  {
    "name": "BrightMed Hospital",
    "location": "Matara",
    "phone": "+94 412 444 000",
    "status": "Closed",
    "id": 297
  },
  {
    "name": "Unity Health Center",
    "location": "Negombo",
    "phone": "+94 312 345 000",
    "status": "Open",
    "id": 298
  },
  {
    "name": "NovaCare Medical",
    "location": "Kandy",
    "phone": "+94 812 123 456",
    "status": "Open",
    "id": 299
  },
  {
    "name": "LifeBridge Hospital",
    "location": "Galle",
    "phone": "+94 912 111 222",
    "status": "Closed",
    "id": 300
  },
  {
    "name": "City General Hospital",
    "location": "Colombo",
    "phone": "+94 112 345 678",
    "status": "Open",
    "id": 301
  },
  {
    "name": "Sunrise Medical Center",
    "location": "Kandy",
    "phone": "+94 812 234 567",
    "status": "Open",
    "id": 302
  },
  {
    "name": "Lotus Heart Institute",
    "location": "Galle",
    "phone": "+94 912 876 543",
    "status": "Closed",
    "id": 303
  },
  {
    "name": "Blue Cross Hospital",
    "location": "Jaffna",
    "phone": "+94 212 345 123",
    "status": "Open",
    "id": 304
  },
  {
    "name": "Central Health Clinic",
    "location": "Negombo",
    "phone": "+94 312 987 654",
    "status": "Open",
    "id": 305
  },
  {
    "name": "St. Mary's Medical'",
    "location": "Matara",
    "phone": "+94 412 111 999",
    "status": "Closed",
    "id": 306
  },
  {
    "name": "Golden Care Hospital",
    "location": "Colombo",
    "phone": "+94 112 876 555",
    "status": "Open",
    "id": 307
  },
  {
    "name": "Lanka Health Plus",
    "location": "Anuradhapura",
    "phone": "+94 252 222 777",
    "status": "Open",
    "id": 308
  },
  {
    "name": "Ocean View Medical",
    "location": "Trincomalee",
    "phone": "+94 262 555 111",
    "status": "Closed",
    "id": 309
  },
  {
    "name": "Pearl City Hospital",
    "location": "Colombo",
    "phone": "+94 112 123 789",
    "status": "Open",
    "id": 310
  },
  {
    "name": "Silverline Clinic",
    "location": "Kegalle",
    "phone": "+94 352 111 222",
    "status": "Open",
    "id": 311
  },
  {
    "name": "Medilife Center",
    "location": "Kurunegala",
    "phone": "+94 372 999 444",
    "status": "Closed",
    "id": 312
  },
  {
    "name": "Highland Hospital",
    "location": "Badulla",
    "phone": "+94 552 555 333",
    "status": "Open",
    "id": 313
  },
  {
    "name": "Healing Touch Medical",
    "location": "Ratnapura",
    "phone": "+94 452 222 444",
    "status": "Open",
    "id": 314
  },
  {
    "name": "Healthy Future Clinic",
    "location": "Colombo",
    "phone": "+94 112 321 654",
    "status": "Closed",
    "id": 315
  },
  {
    "name": "Sun Care Hospital",
    "location": "Jaffna",
    "phone": "+94 212 222 888",
    "status": "Open",
    "id": 316
  },
  {
    "name": "BrightMed Hospital",
    "location": "Matara",
    "phone": "+94 412 444 000",
    "status": "Closed",
    "id": 317
  },
  {
    "name": "Unity Health Center",
    "location": "Negombo",
    "phone": "+94 312 345 000",
    "status": "Open",
    "id": 318
  },
  {
    "name": "NovaCare Medical",
    "location": "Kandy",
    "phone": "+94 812 123 456",
    "status": "Open",
    "id": 319
  },
  {
    "name": "LifeBridge Hospital",
    "location": "Galle",
    "phone": "+94 912 111 222",
    "status": "Closed",
    "id": 320
  },
  {
    "name": "City General Hospital",
    "location": "Colombo",
    "phone": "+94 112 345 678",
    "status": "Open",
    "id": 321
  },
  {
    "name": "Sunrise Medical Center",
    "location": "Kandy",
    "phone": "+94 812 234 567",
    "status": "Open",
    "id": 322
  },
  {
    "name": "Lotus Heart Institute",
    "location": "Galle",
    "phone": "+94 912 876 543",
    "status": "Closed",
    "id": 323
  },
  {
    "name": "Blue Cross Hospital",
    "location": "Jaffna",
    "phone": "+94 212 345 123",
    "status": "Open",
    "id": 324
  },
  {
    "name": "Central Health Clinic",
    "location": "Negombo",
    "phone": "+94 312 987 654",
    "status": "Open",
    "id": 325
  },
  {
    "name": "St. Mary's Medical'",
    "location": "Matara",
    "phone": "+94 412 111 999",
    "status": "Closed",
    "id": 326
  },
  {
    "name": "Golden Care Hospital",
    "location": "Colombo",
    "phone": "+94 112 876 555",
    "status": "Open",
    "id": 327
  },
  {
    "name": "Lanka Health Plus",
    "location": "Anuradhapura",
    "phone": "+94 252 222 777",
    "status": "Open",
    "id": 328
  },
  {
    "name": "Ocean View Medical",
    "location": "Trincomalee",
    "phone": "+94 262 555 111",
    "status": "Closed",
    "id": 329
  },
  {
    "name": "Pearl City Hospital",
    "location": "Colombo",
    "phone": "+94 112 123 789",
    "status": "Open",
    "id": 330
  },
  {
    "name": "Silverline Clinic",
    "location": "Kegalle",
    "phone": "+94 352 111 222",
    "status": "Open",
    "id": 331
  },
  {
    "name": "Medilife Center",
    "location": "Kurunegala",
    "phone": "+94 372 999 444",
    "status": "Closed",
    "id": 332
  },
  {
    "name": "Highland Hospital",
    "location": "Badulla",
    "phone": "+94 552 555 333",
    "status": "Open",
    "id": 333
  },
  {
    "name": "Healing Touch Medical",
    "location": "Ratnapura",
    "phone": "+94 452 222 444",
    "status": "Open",
    "id": 334
  },
  {
    "name": "Healthy Future Clinic",
    "location": "Colombo",
    "phone": "+94 112 321 654",
    "status": "Closed",
    "id": 335
  },
  {
    "name": "Sun Care Hospital",
    "location": "Jaffna",
    "phone": "+94 212 222 888",
    "status": "Open",
    "id": 336
  },
  {
    "name": "BrightMed Hospital",
    "location": "Matara",
    "phone": "+94 412 444 000",
    "status": "Closed",
    "id": 337
  },
  {
    "name": "Unity Health Center",
    "location": "Negombo",
    "phone": "+94 312 345 000",
    "status": "Open",
    "id": 338
  },
  {
    "name": "NovaCare Medical",
    "location": "Kandy",
    "phone": "+94 812 123 456",
    "status": "Open",
    "id": 339
  },
  {
    "name": "LifeBridge Hospital",
    "location": "Galle",
    "phone": "+94 912 111 222",
    "status": "Closed",
    "id": 340
  },
  {
    "name": "City General Hospital",
    "location": "Colombo",
    "phone": "+94 112 345 678",
    "status": "Open",
    "id": 341
  },
  {
    "name": "Sunrise Medical Center",
    "location": "Kandy",
    "phone": "+94 812 234 567",
    "status": "Open",
    "id": 342
  },
  {
    "name": "Lotus Heart Institute",
    "location": "Galle",
    "phone": "+94 912 876 543",
    "status": "Closed",
    "id": 343
  },
  {
    "name": "Blue Cross Hospital",
    "location": "Jaffna",
    "phone": "+94 212 345 123",
    "status": "Open",
    "id": 344
  },
  {
    "name": "Central Health Clinic",
    "location": "Negombo",
    "phone": "+94 312 987 654",
    "status": "Open",
    "id": 345
  },
  {
    "name": "St. Mary's Medical'",
    "location": "Matara",
    "phone": "+94 412 111 999",
    "status": "Closed",
    "id": 346
  },
  {
    "name": "Golden Care Hospital",
    "location": "Colombo",
    "phone": "+94 112 876 555",
    "status": "Open",
    "id": 347
  },
  {
    "name": "Lanka Health Plus",
    "location": "Anuradhapura",
    "phone": "+94 252 222 777",
    "status": "Open",
    "id": 348
  },
  {
    "name": "Ocean View Medical",
    "location": "Trincomalee",
    "phone": "+94 262 555 111",
    "status": "Closed",
    "id": 349
  },
  {
    "name": "Pearl City Hospital",
    "location": "Colombo",
    "phone": "+94 112 123 789",
    "status": "Open",
    "id": 350
  },
  {
    "name": "Silverline Clinic",
    "location": "Kegalle",
    "phone": "+94 352 111 222",
    "status": "Open",
    "id": 351
  },
  {
    "name": "Medilife Center",
    "location": "Kurunegala",
    "phone": "+94 372 999 444",
    "status": "Closed",
    "id": 352
  },
  {
    "name": "Highland Hospital",
    "location": "Badulla",
    "phone": "+94 552 555 333",
    "status": "Open",
    "id": 353
  },
  {
    "name": "Healing Touch Medical",
    "location": "Ratnapura",
    "phone": "+94 452 222 444",
    "status": "Open",
    "id": 354
  },
  {
    "name": "Healthy Future Clinic",
    "location": "Colombo",
    "phone": "+94 112 321 654",
    "status": "Closed",
    "id": 355
  },
  {
    "name": "Sun Care Hospital",
    "location": "Jaffna",
    "phone": "+94 212 222 888",
    "status": "Open",
    "id": 356
  },
  {
    "name": "BrightMed Hospital",
    "location": "Matara",
    "phone": "+94 412 444 000",
    "status": "Closed",
    "id": 357
  },
  {
    "name": "Unity Health Center",
    "location": "Negombo",
    "phone": "+94 312 345 000",
    "status": "Open",
    "id": 358
  },
  {
    "name": "NovaCare Medical",
    "location": "Kandy",
    "phone": "+94 812 123 456",
    "status": "Open",
    "id": 359
  },
  {
    "name": "LifeBridge Hospital",
    "location": "Galle",
    "phone": "+94 912 111 222",
    "status": "Closed",
    "id": 360
  },
  {
    "name": "City General Hospital",
    "location": "Colombo",
    "phone": "+94 112 345 678",
    "status": "Open",
    "id": 361
  },
  {
    "name": "Sunrise Medical Center",
    "location": "Kandy",
    "phone": "+94 812 234 567",
    "status": "Open",
    "id": 362
  },
  {
    "name": "Lotus Heart Institute",
    "location": "Galle",
    "phone": "+94 912 876 543",
    "status": "Closed",
    "id": 363
  },
  {
    "name": "Blue Cross Hospital",
    "location": "Jaffna",
    "phone": "+94 212 345 123",
    "status": "Open",
    "id": 364
  },
  {
    "name": "Central Health Clinic",
    "location": "Negombo",
    "phone": "+94 312 987 654",
    "status": "Open",
    "id": 365
  },
  {
    "name": "St. Mary's Medical'",
    "location": "Matara",
    "phone": "+94 412 111 999",
    "status": "Closed",
    "id": 366
  },
  {
    "name": "Golden Care Hospital",
    "location": "Colombo",
    "phone": "+94 112 876 555",
    "status": "Open",
    "id": 367
  },
  {
    "name": "Lanka Health Plus",
    "location": "Anuradhapura",
    "phone": "+94 252 222 777",
    "status": "Open",
    "id": 368
  },
  {
    "name": "Ocean View Medical",
    "location": "Trincomalee",
    "phone": "+94 262 555 111",
    "status": "Closed",
    "id": 369
  },
  {
    "name": "Pearl City Hospital",
    "location": "Colombo",
    "phone": "+94 112 123 789",
    "status": "Open",
    "id": 370
  },
  {
    "name": "Silverline Clinic",
    "location": "Kegalle",
    "phone": "+94 352 111 222",
    "status": "Open",
    "id": 371
  },
  {
    "name": "Medilife Center",
    "location": "Kurunegala",
    "phone": "+94 372 999 444",
    "status": "Closed",
    "id": 372
  },
  {
    "name": "Highland Hospital",
    "location": "Badulla",
    "phone": "+94 552 555 333",
    "status": "Open",
    "id": 373
  },
  {
    "name": "Healing Touch Medical",
    "location": "Ratnapura",
    "phone": "+94 452 222 444",
    "status": "Open",
    "id": 374
  },
  {
    "name": "Healthy Future Clinic",
    "location": "Colombo",
    "phone": "+94 112 321 654",
    "status": "Closed",
    "id": 375
  },
  {
    "name": "Sun Care Hospital",
    "location": "Jaffna",
    "phone": "+94 212 222 888",
    "status": "Open",
    "id": 376
  },
  {
    "name": "BrightMed Hospital",
    "location": "Matara",
    "phone": "+94 412 444 000",
    "status": "Closed",
    "id": 377
  },
  {
    "name": "Unity Health Center",
    "location": "Negombo",
    "phone": "+94 312 345 000",
    "status": "Open",
    "id": 378
  },
  {
    "name": "NovaCare Medical",
    "location": "Kandy",
    "phone": "+94 812 123 456",
    "status": "Open",
    "id": 379
  },
  {
    "name": "LifeBridge Hospital",
    "location": "Galle",
    "phone": "+94 912 111 222",
    "status": "Closed",
    "id": 380
  },
  {
    "name": "City General Hospital",
    "location": "Colombo",
    "phone": "+94 112 345 678",
    "status": "Open",
    "id": 381
  },
  {
    "name": "Sunrise Medical Center",
    "location": "Kandy",
    "phone": "+94 812 234 567",
    "status": "Open",
    "id": 382
  },
  {
    "name": "Lotus Heart Institute",
    "location": "Galle",
    "phone": "+94 912 876 543",
    "status": "Closed",
    "id": 383
  },
  {
    "name": "Blue Cross Hospital",
    "location": "Jaffna",
    "phone": "+94 212 345 123",
    "status": "Open",
    "id": 384
  },
  {
    "name": "Central Health Clinic",
    "location": "Negombo",
    "phone": "+94 312 987 654",
    "status": "Open",
    "id": 385
  },
  {
    "name": "St. Mary's Medical'",
    "location": "Matara",
    "phone": "+94 412 111 999",
    "status": "Closed",
    "id": 386
  },
  {
    "name": "Golden Care Hospital",
    "location": "Colombo",
    "phone": "+94 112 876 555",
    "status": "Open",
    "id": 387
  },
  {
    "name": "Lanka Health Plus",
    "location": "Anuradhapura",
    "phone": "+94 252 222 777",
    "status": "Open",
    "id": 388
  },
  {
    "name": "Ocean View Medical",
    "location": "Trincomalee",
    "phone": "+94 262 555 111",
    "status": "Closed",
    "id": 389
  },
  {
    "name": "Pearl City Hospital",
    "location": "Colombo",
    "phone": "+94 112 123 789",
    "status": "Open",
    "id": 390
  },
  {
    "name": "Silverline Clinic",
    "location": "Kegalle",
    "phone": "+94 352 111 222",
    "status": "Open",
    "id": 391
  },
  {
    "name": "Medilife Center",
    "location": "Kurunegala",
    "phone": "+94 372 999 444",
    "status": "Closed",
    "id": 392
  },
  {
    "name": "Highland Hospital",
    "location": "Badulla",
    "phone": "+94 552 555 333",
    "status": "Open",
    "id": 393
  },
  {
    "name": "Healing Touch Medical",
    "location": "Ratnapura",
    "phone": "+94 452 222 444",
    "status": "Open",
    "id": 394
  },
  {
    "name": "Healthy Future Clinic",
    "location": "Colombo",
    "phone": "+94 112 321 654",
    "status": "Closed",
    "id": 395
  },
  {
    "name": "Sun Care Hospital",
    "location": "Jaffna",
    "phone": "+94 212 222 888",
    "status": "Open",
    "id": 396
  },
  {
    "name": "BrightMed Hospital",
    "location": "Matara",
    "phone": "+94 412 444 000",
    "status": "Closed",
    "id": 397
  },
  {
    "name": "Unity Health Center",
    "location": "Negombo",
    "phone": "+94 312 345 000",
    "status": "Open",
    "id": 398
  },
  {
    "name": "NovaCare Medical",
    "location": "Kandy",
    "phone": "+94 812 123 456",
    "status": "Open",
    "id": 399
  },
  {
    "name": "LifeBridge Hospital",
    "location": "Galle",
    "phone": "+94 912 111 222",
    "status": "Closed",
    "id": 400
  },
  {
    "name": "City General Hospital",
    "location": "Colombo",
    "phone": "+94 112 345 678",
    "status": "Open",
    "id": 401
  },
  {
    "name": "Sunrise Medical Center",
    "location": "Kandy",
    "phone": "+94 812 234 567",
    "status": "Open",
    "id": 402
  },
  {
    "name": "Lotus Heart Institute",
    "location": "Galle",
    "phone": "+94 912 876 543",
    "status": "Closed",
    "id": 403
  },
  {
    "name": "Blue Cross Hospital",
    "location": "Jaffna",
    "phone": "+94 212 345 123",
    "status": "Open",
    "id": 404
  },
  {
    "name": "Central Health Clinic",
    "location": "Negombo",
    "phone": "+94 312 987 654",
    "status": "Open",
    "id": 405
  },
  {
    "name": "St. Mary's Medical'",
    "location": "Matara",
    "phone": "+94 412 111 999",
    "status": "Closed",
    "id": 406
  },
  {
    "name": "Golden Care Hospital",
    "location": "Colombo",
    "phone": "+94 112 876 555",
    "status": "Open",
    "id": 407
  },
  {
    "name": "Lanka Health Plus",
    "location": "Anuradhapura",
    "phone": "+94 252 222 777",
    "status": "Open",
    "id": 408
  },
  {
    "name": "Ocean View Medical",
    "location": "Trincomalee",
    "phone": "+94 262 555 111",
    "status": "Closed",
    "id": 409
  },
  {
    "name": "Pearl City Hospital",
    "location": "Colombo",
    "phone": "+94 112 123 789",
    "status": "Open",
    "id": 410
  },
  {
    "name": "Silverline Clinic",
    "location": "Kegalle",
    "phone": "+94 352 111 222",
    "status": "Open",
    "id": 411
  },
  {
    "name": "Medilife Center",
    "location": "Kurunegala",
    "phone": "+94 372 999 444",
    "status": "Closed",
    "id": 412
  },
  {
    "name": "Highland Hospital",
    "location": "Badulla",
    "phone": "+94 552 555 333",
    "status": "Open",
    "id": 413
  },
  {
    "name": "Healing Touch Medical",
    "location": "Ratnapura",
    "phone": "+94 452 222 444",
    "status": "Open",
    "id": 414
  },
  {
    "name": "Healthy Future Clinic",
    "location": "Colombo",
    "phone": "+94 112 321 654",
    "status": "Closed",
    "id": 415
  },
  {
    "name": "Sun Care Hospital",
    "location": "Jaffna",
    "phone": "+94 212 222 888",
    "status": "Open",
    "id": 416
  },
  {
    "name": "BrightMed Hospital",
    "location": "Matara",
    "phone": "+94 412 444 000",
    "status": "Closed",
    "id": 417
  },
  {
    "name": "Unity Health Center",
    "location": "Negombo",
    "phone": "+94 312 345 000",
    "status": "Open",
    "id": 418
  },
  {
    "name": "NovaCare Medical",
    "location": "Kandy",
    "phone": "+94 812 123 456",
    "status": "Open",
    "id": 419
  },
  {
    "name": "LifeBridge Hospital",
    "location": "Galle",
    "phone": "+94 912 111 222",
    "status": "Closed",
    "id": 420
  },
  {
    "name": "City General Hospital",
    "location": "Colombo",
    "phone": "+94 112 345 678",
    "status": "Open",
    "id": 421
  },
  {
    "name": "Sunrise Medical Center",
    "location": "Kandy",
    "phone": "+94 812 234 567",
    "status": "Open",
    "id": 422
  },
  {
    "name": "Lotus Heart Institute",
    "location": "Galle",
    "phone": "+94 912 876 543",
    "status": "Closed",
    "id": 423
  },
  {
    "name": "Blue Cross Hospital",
    "location": "Jaffna",
    "phone": "+94 212 345 123",
    "status": "Open",
    "id": 424
  },
  {
    "name": "Central Health Clinic",
    "location": "Negombo",
    "phone": "+94 312 987 654",
    "status": "Open",
    "id": 425
  },
  {
    "name": "St. Mary's Medical'",
    "location": "Matara",
    "phone": "+94 412 111 999",
    "status": "Closed",
    "id": 426
  },
  {
    "name": "Golden Care Hospital",
    "location": "Colombo",
    "phone": "+94 112 876 555",
    "status": "Open",
    "id": 427
  },
  {
    "name": "Lanka Health Plus",
    "location": "Anuradhapura",
    "phone": "+94 252 222 777",
    "status": "Open",
    "id": 428
  },
  {
    "name": "Ocean View Medical",
    "location": "Trincomalee",
    "phone": "+94 262 555 111",
    "status": "Closed",
    "id": 429
  },
  {
    "name": "Pearl City Hospital",
    "location": "Colombo",
    "phone": "+94 112 123 789",
    "status": "Open",
    "id": 430
  },
  {
    "name": "Silverline Clinic",
    "location": "Kegalle",
    "phone": "+94 352 111 222",
    "status": "Open",
    "id": 431
  },
  {
    "name": "Medilife Center",
    "location": "Kurunegala",
    "phone": "+94 372 999 444",
    "status": "Closed",
    "id": 432
  },
  {
    "name": "Highland Hospital",
    "location": "Badulla",
    "phone": "+94 552 555 333",
    "status": "Open",
    "id": 433
  },
  {
    "name": "Healing Touch Medical",
    "location": "Ratnapura",
    "phone": "+94 452 222 444",
    "status": "Open",
    "id": 434
  },
  {
    "name": "Healthy Future Clinic",
    "location": "Colombo",
    "phone": "+94 112 321 654",
    "status": "Closed",
    "id": 435
  },
  {
    "name": "Sun Care Hospital",
    "location": "Jaffna",
    "phone": "+94 212 222 888",
    "status": "Open",
    "id": 436
  },
  {
    "name": "BrightMed Hospital",
    "location": "Matara",
    "phone": "+94 412 444 000",
    "status": "Closed",
    "id": 437
  },
  {
    "name": "Unity Health Center",
    "location": "Negombo",
    "phone": "+94 312 345 000",
    "status": "Open",
    "id": 438
  },
  {
    "name": "NovaCare Medical",
    "location": "Kandy",
    "phone": "+94 812 123 456",
    "status": "Open",
    "id": 439
  },
  {
    "name": "LifeBridge Hospital",
    "location": "Galle",
    "phone": "+94 912 111 222",
    "status": "Closed",
    "id": 440
  },
  {
    "name": "City General Hospital",
    "location": "Colombo",
    "phone": "+94 112 345 678",
    "status": "Open",
    "id": 441
  },
  {
    "name": "Sunrise Medical Center",
    "location": "Kandy",
    "phone": "+94 812 234 567",
    "status": "Open",
    "id": 442
  },
  {
    "name": "Lotus Heart Institute",
    "location": "Galle",
    "phone": "+94 912 876 543",
    "status": "Closed",
    "id": 443
  },
  {
    "name": "Blue Cross Hospital",
    "location": "Jaffna",
    "phone": "+94 212 345 123",
    "status": "Open",
    "id": 444
  },
  {
    "name": "Central Health Clinic",
    "location": "Negombo",
    "phone": "+94 312 987 654",
    "status": "Open",
    "id": 445
  },
  {
    "name": "St. Mary's Medical'",
    "location": "Matara",
    "phone": "+94 412 111 999",
    "status": "Closed",
    "id": 446
  },
  {
    "name": "Golden Care Hospital",
    "location": "Colombo",
    "phone": "+94 112 876 555",
    "status": "Open",
    "id": 447
  },
  {
    "name": "Lanka Health Plus",
    "location": "Anuradhapura",
    "phone": "+94 252 222 777",
    "status": "Open",
    "id": 448
  },
  {
    "name": "Ocean View Medical",
    "location": "Trincomalee",
    "phone": "+94 262 555 111",
    "status": "Closed",
    "id": 449
  },
  {
    "name": "Pearl City Hospital",
    "location": "Colombo",
    "phone": "+94 112 123 789",
    "status": "Open",
    "id": 450
  },
  {
    "name": "Silverline Clinic",
    "location": "Kegalle",
    "phone": "+94 352 111 222",
    "status": "Open",
    "id": 451
  },
  {
    "name": "Medilife Center",
    "location": "Kurunegala",
    "phone": "+94 372 999 444",
    "status": "Closed",
    "id": 452
  },
  {
    "name": "Highland Hospital",
    "location": "Badulla",
    "phone": "+94 552 555 333",
    "status": "Open",
    "id": 453
  },
  {
    "name": "Healing Touch Medical",
    "location": "Ratnapura",
    "phone": "+94 452 222 444",
    "status": "Open",
    "id": 454
  },
  {
    "name": "Healthy Future Clinic",
    "location": "Colombo",
    "phone": "+94 112 321 654",
    "status": "Closed",
    "id": 455
  },
  {
    "name": "Sun Care Hospital",
    "location": "Jaffna",
    "phone": "+94 212 222 888",
    "status": "Open",
    "id": 456
  },
  {
    "name": "BrightMed Hospital",
    "location": "Matara",
    "phone": "+94 412 444 000",
    "status": "Closed",
    "id": 457
  },
  {
    "name": "Unity Health Center",
    "location": "Negombo",
    "phone": "+94 312 345 000",
    "status": "Open",
    "id": 458
  },
  {
    "name": "NovaCare Medical",
    "location": "Kandy",
    "phone": "+94 812 123 456",
    "status": "Open",
    "id": 459
  },
  {
    "name": "LifeBridge Hospital",
    "location": "Galle",
    "phone": "+94 912 111 222",
    "status": "Closed",
    "id": 460
  },
  {
    "name": "City General Hospital",
    "location": "Colombo",
    "phone": "+94 112 345 678",
    "status": "Open",
    "id": 461
  },
  {
    "name": "Sunrise Medical Center",
    "location": "Kandy",
    "phone": "+94 812 234 567",
    "status": "Open",
    "id": 462
  },
  {
    "name": "Lotus Heart Institute",
    "location": "Galle",
    "phone": "+94 912 876 543",
    "status": "Closed",
    "id": 463
  },
  {
    "name": "Blue Cross Hospital",
    "location": "Jaffna",
    "phone": "+94 212 345 123",
    "status": "Open",
    "id": 464
  },
  {
    "name": "Central Health Clinic",
    "location": "Negombo",
    "phone": "+94 312 987 654",
    "status": "Open",
    "id": 465
  },
  {
    "name": "St. Mary's Medical'",
    "location": "Matara",
    "phone": "+94 412 111 999",
    "status": "Closed",
    "id": 466
  },
  {
    "name": "Golden Care Hospital",
    "location": "Colombo",
    "phone": "+94 112 876 555",
    "status": "Open",
    "id": 467
  },
  {
    "name": "Lanka Health Plus",
    "location": "Anuradhapura",
    "phone": "+94 252 222 777",
    "status": "Open",
    "id": 468
  },
  {
    "name": "Ocean View Medical",
    "location": "Trincomalee",
    "phone": "+94 262 555 111",
    "status": "Closed",
    "id": 469
  },
  {
    "name": "Pearl City Hospital",
    "location": "Colombo",
    "phone": "+94 112 123 789",
    "status": "Open",
    "id": 470
  },
  {
    "name": "Silverline Clinic",
    "location": "Kegalle",
    "phone": "+94 352 111 222",
    "status": "Open",
    "id": 471
  },
  {
    "name": "Medilife Center",
    "location": "Kurunegala",
    "phone": "+94 372 999 444",
    "status": "Closed",
    "id": 472
  },
  {
    "name": "Highland Hospital",
    "location": "Badulla",
    "phone": "+94 552 555 333",
    "status": "Open",
    "id": 473
  },
  {
    "name": "Healing Touch Medical",
    "location": "Ratnapura",
    "phone": "+94 452 222 444",
    "status": "Open",
    "id": 474
  },
  {
    "name": "Healthy Future Clinic",
    "location": "Colombo",
    "phone": "+94 112 321 654",
    "status": "Closed",
    "id": 475
  },
  {
    "name": "Sun Care Hospital",
    "location": "Jaffna",
    "phone": "+94 212 222 888",
    "status": "Open",
    "id": 476
  },
  {
    "name": "BrightMed Hospital",
    "location": "Matara",
    "phone": "+94 412 444 000",
    "status": "Closed",
    "id": 477
  },
  {
    "name": "Unity Health Center",
    "location": "Negombo",
    "phone": "+94 312 345 000",
    "status": "Open",
    "id": 478
  },
  {
    "name": "NovaCare Medical",
    "location": "Kandy",
    "phone": "+94 812 123 456",
    "status": "Open",
    "id": 479
  },
  {
    "name": "LifeBridge Hospital",
    "location": "Galle",
    "phone": "+94 912 111 222",
    "status": "Closed",
    "id": 480
  },
  {
    "name": "City General Hospital",
    "location": "Colombo",
    "phone": "+94 112 345 678",
    "status": "Open",
    "id": 481
  },
  {
    "name": "Sunrise Medical Center",
    "location": "Kandy",
    "phone": "+94 812 234 567",
    "status": "Open",
    "id": 482
  },
  {
    "name": "Lotus Heart Institute",
    "location": "Galle",
    "phone": "+94 912 876 543",
    "status": "Closed",
    "id": 483
  },
  {
    "name": "Blue Cross Hospital",
    "location": "Jaffna",
    "phone": "+94 212 345 123",
    "status": "Open",
    "id": 484
  },
  {
    "name": "Central Health Clinic",
    "location": "Negombo",
    "phone": "+94 312 987 654",
    "status": "Open",
    "id": 485
  },
  {
    "name": "St. Mary's Medical'",
    "location": "Matara",
    "phone": "+94 412 111 999",
    "status": "Closed",
    "id": 486
  },
  {
    "name": "Golden Care Hospital",
    "location": "Colombo",
    "phone": "+94 112 876 555",
    "status": "Open",
    "id": 487
  },
  {
    "name": "Lanka Health Plus",
    "location": "Anuradhapura",
    "phone": "+94 252 222 777",
    "status": "Open",
    "id": 488
  },
  {
    "name": "Ocean View Medical",
    "location": "Trincomalee",
    "phone": "+94 262 555 111",
    "status": "Closed",
    "id": 489
  },
  {
    "name": "Pearl City Hospital",
    "location": "Colombo",
    "phone": "+94 112 123 789",
    "status": "Open",
    "id": 490
  },
  {
    "name": "Silverline Clinic",
    "location": "Kegalle",
    "phone": "+94 352 111 222",
    "status": "Open",
    "id": 491
  },
  {
    "name": "Medilife Center",
    "location": "Kurunegala",
    "phone": "+94 372 999 444",
    "status": "Closed",
    "id": 492
  },
  {
    "name": "Highland Hospital",
    "location": "Badulla",
    "phone": "+94 552 555 333",
    "status": "Open",
    "id": 493
  },
  {
    "name": "Healing Touch Medical",
    "location": "Ratnapura",
    "phone": "+94 452 222 444",
    "status": "Open",
    "id": 494
  },
  {
    "name": "Healthy Future Clinic",
    "location": "Colombo",
    "phone": "+94 112 321 654",
    "status": "Closed",
    "id": 495
  },
  {
    "name": "Sun Care Hospital",
    "location": "Jaffna",
    "phone": "+94 212 222 888",
    "status": "Open",
    "id": 496
  },
  {
    "name": "BrightMed Hospital",
    "location": "Matara",
    "phone": "+94 412 444 000",
    "status": "Closed",
    "id": 497
  },
  {
    "name": "Unity Health Center",
    "location": "Negombo",
    "phone": "+94 312 345 000",
    "status": "Open",
    "id": 498
  },
  {
    "name": "NovaCare Medical",
    "location": "Kandy",
    "phone": "+94 812 123 456",
    "status": "Open",
    "id": 499
  },
  {
    "name": "LifeBridge Hospital",
    "location": "Galle",
    "phone": "+94 912 111 222",
    "status": "Closed",
    "id": 500
  },
  {
    "name": "City General Hospital",
    "location": "Colombo",
    "phone": "+94 112 345 678",
    "status": "Open",
    "id": 501
  },
  {
    "name": "Sunrise Medical Center",
    "location": "Kandy",
    "phone": "+94 812 234 567",
    "status": "Open",
    "id": 502
  },
  {
    "name": "Lotus Heart Institute",
    "location": "Galle",
    "phone": "+94 912 876 543",
    "status": "Closed",
    "id": 503
  },
  {
    "name": "Blue Cross Hospital",
    "location": "Jaffna",
    "phone": "+94 212 345 123",
    "status": "Open",
    "id": 504
  },
  {
    "name": "Central Health Clinic",
    "location": "Negombo",
    "phone": "+94 312 987 654",
    "status": "Open",
    "id": 505
  },
  {
    "name": "St. Mary's Medical'",
    "location": "Matara",
    "phone": "+94 412 111 999",
    "status": "Closed",
    "id": 506
  },
  {
    "name": "Golden Care Hospital",
    "location": "Colombo",
    "phone": "+94 112 876 555",
    "status": "Open",
    "id": 507
  },
  {
    "name": "Lanka Health Plus",
    "location": "Anuradhapura",
    "phone": "+94 252 222 777",
    "status": "Open",
    "id": 508
  },
  {
    "name": "Ocean View Medical",
    "location": "Trincomalee",
    "phone": "+94 262 555 111",
    "status": "Closed",
    "id": 509
  },
  {
    "name": "Pearl City Hospital",
    "location": "Colombo",
    "phone": "+94 112 123 789",
    "status": "Open",
    "id": 510
  },
  {
    "name": "Silverline Clinic",
    "location": "Kegalle",
    "phone": "+94 352 111 222",
    "status": "Open",
    "id": 511
  },
  {
    "name": "Medilife Center",
    "location": "Kurunegala",
    "phone": "+94 372 999 444",
    "status": "Closed",
    "id": 512
  },
  {
    "name": "Highland Hospital",
    "location": "Badulla",
    "phone": "+94 552 555 333",
    "status": "Open",
    "id": 513
  },
  {
    "name": "Healing Touch Medical",
    "location": "Ratnapura",
    "phone": "+94 452 222 444",
    "status": "Open",
    "id": 514
  },
  {
    "name": "Healthy Future Clinic",
    "location": "Colombo",
    "phone": "+94 112 321 654",
    "status": "Closed",
    "id": 515
  },
  {
    "name": "Sun Care Hospital",
    "location": "Jaffna",
    "phone": "+94 212 222 888",
    "status": "Open",
    "id": 516
  },
  {
    "name": "BrightMed Hospital",
    "location": "Matara",
    "phone": "+94 412 444 000",
    "status": "Closed",
    "id": 517
  },
  {
    "name": "Unity Health Center",
    "location": "Negombo",
    "phone": "+94 312 345 000",
    "status": "Open",
    "id": 518
  },
  {
    "name": "NovaCare Medical",
    "location": "Kandy",
    "phone": "+94 812 123 456",
    "status": "Open",
    "id": 519
  },
  {
    "name": "LifeBridge Hospital",
    "location": "Galle",
    "phone": "+94 912 111 222",
    "status": "Closed",
    "id": 520
  },
  {
    "name": "City General Hospital",
    "location": "Colombo",
    "phone": "+94 112 345 678",
    "status": "Open",
    "id": 521
  },
  {
    "name": "Sunrise Medical Center",
    "location": "Kandy",
    "phone": "+94 812 234 567",
    "status": "Open",
    "id": 522
  },
  {
    "name": "Lotus Heart Institute",
    "location": "Galle",
    "phone": "+94 912 876 543",
    "status": "Closed",
    "id": 523
  },
  {
    "name": "Blue Cross Hospital",
    "location": "Jaffna",
    "phone": "+94 212 345 123",
    "status": "Open",
    "id": 524
  },
  {
    "name": "Central Health Clinic",
    "location": "Negombo",
    "phone": "+94 312 987 654",
    "status": "Open",
    "id": 525
  },
  {
    "name": "St. Mary's Medical'",
    "location": "Matara",
    "phone": "+94 412 111 999",
    "status": "Closed",
    "id": 526
  },
  {
    "name": "Golden Care Hospital",
    "location": "Colombo",
    "phone": "+94 112 876 555",
    "status": "Open",
    "id": 527
  },
  {
    "name": "Lanka Health Plus",
    "location": "Anuradhapura",
    "phone": "+94 252 222 777",
    "status": "Open",
    "id": 528
  },
  {
    "name": "Ocean View Medical",
    "location": "Trincomalee",
    "phone": "+94 262 555 111",
    "status": "Closed",
    "id": 529
  },
  {
    "name": "Pearl City Hospital",
    "location": "Colombo",
    "phone": "+94 112 123 789",
    "status": "Open",
    "id": 530
  },
  {
    "name": "Silverline Clinic",
    "location": "Kegalle",
    "phone": "+94 352 111 222",
    "status": "Open",
    "id": 531
  },
  {
    "name": "Medilife Center",
    "location": "Kurunegala",
    "phone": "+94 372 999 444",
    "status": "Closed",
    "id": 532
  },
  {
    "name": "Highland Hospital",
    "location": "Badulla",
    "phone": "+94 552 555 333",
    "status": "Open",
    "id": 533
  },
  {
    "name": "Healing Touch Medical",
    "location": "Ratnapura",
    "phone": "+94 452 222 444",
    "status": "Open",
    "id": 534
  },
  {
    "name": "Healthy Future Clinic",
    "location": "Colombo",
    "phone": "+94 112 321 654",
    "status": "Closed",
    "id": 535
  },
  {
    "name": "Sun Care Hospital",
    "location": "Jaffna",
    "phone": "+94 212 222 888",
    "status": "Open",
    "id": 536
  },
  {
    "name": "BrightMed Hospital",
    "location": "Matara",
    "phone": "+94 412 444 000",
    "status": "Closed",
    "id": 537
  },
  {
    "name": "Unity Health Center",
    "location": "Negombo",
    "phone": "+94 312 345 000",
    "status": "Open",
    "id": 538
  },
  {
    "name": "NovaCare Medical",
    "location": "Kandy",
    "phone": "+94 812 123 456",
    "status": "Open",
    "id": 539
  },
  {
    "name": "LifeBridge Hospital",
    "location": "Galle",
    "phone": "+94 912 111 222",
    "status": "Closed",
    "id": 540
  },
  {
    "name": "City General Hospital",
    "location": "Colombo",
    "phone": "+94 112 345 678",
    "status": "Open",
    "id": 541
  },
  {
    "name": "Sunrise Medical Center",
    "location": "Kandy",
    "phone": "+94 812 234 567",
    "status": "Open",
    "id": 542
  },
  {
    "name": "Lotus Heart Institute",
    "location": "Galle",
    "phone": "+94 912 876 543",
    "status": "Closed",
    "id": 543
  },
  {
    "name": "Blue Cross Hospital",
    "location": "Jaffna",
    "phone": "+94 212 345 123",
    "status": "Open",
    "id": 544
  },
  {
    "name": "Central Health Clinic",
    "location": "Negombo",
    "phone": "+94 312 987 654",
    "status": "Open",
    "id": 545
  },
  {
    "name": "St. Mary's Medical'",
    "location": "Matara",
    "phone": "+94 412 111 999",
    "status": "Closed",
    "id": 546
  },
  {
    "name": "Golden Care Hospital",
    "location": "Colombo",
    "phone": "+94 112 876 555",
    "status": "Open",
    "id": 547
  },
  {
    "name": "Lanka Health Plus",
    "location": "Anuradhapura",
    "phone": "+94 252 222 777",
    "status": "Open",
    "id": 548
  },
  {
    "name": "Ocean View Medical",
    "location": "Trincomalee",
    "phone": "+94 262 555 111",
    "status": "Closed",
    "id": 549
  },
  {
    "name": "Pearl City Hospital",
    "location": "Colombo",
    "phone": "+94 112 123 789",
    "status": "Open",
    "id": 550
  },
  {
    "name": "Silverline Clinic",
    "location": "Kegalle",
    "phone": "+94 352 111 222",
    "status": "Open",
    "id": 551
  },
  {
    "name": "Medilife Center",
    "location": "Kurunegala",
    "phone": "+94 372 999 444",
    "status": "Closed",
    "id": 552
  },
  {
    "name": "Highland Hospital",
    "location": "Badulla",
    "phone": "+94 552 555 333",
    "status": "Open",
    "id": 553
  },
  {
    "name": "Healing Touch Medical",
    "location": "Ratnapura",
    "phone": "+94 452 222 444",
    "status": "Open",
    "id": 554
  },
  {
    "name": "Healthy Future Clinic",
    "location": "Colombo",
    "phone": "+94 112 321 654",
    "status": "Closed",
    "id": 555
  },
  {
    "name": "Sun Care Hospital",
    "location": "Jaffna",
    "phone": "+94 212 222 888",
    "status": "Open",
    "id": 556
  },
  {
    "name": "BrightMed Hospital",
    "location": "Matara",
    "phone": "+94 412 444 000",
    "status": "Closed",
    "id": 557
  },
  {
    "name": "Unity Health Center",
    "location": "Negombo",
    "phone": "+94 312 345 000",
    "status": "Open",
    "id": 558
  },
  {
    "name": "NovaCare Medical",
    "location": "Kandy",
    "phone": "+94 812 123 456",
    "status": "Open",
    "id": 559
  },
  {
    "name": "LifeBridge Hospital",
    "location": "Galle",
    "phone": "+94 912 111 222",
    "status": "Closed",
    "id": 560
  },
  {
    "name": "City General Hospital",
    "location": "Colombo",
    "phone": "+94 112 345 678",
    "status": "Open",
    "id": 561
  },
  {
    "name": "Sunrise Medical Center",
    "location": "Kandy",
    "phone": "+94 812 234 567",
    "status": "Open",
    "id": 562
  },
  {
    "name": "Lotus Heart Institute",
    "location": "Galle",
    "phone": "+94 912 876 543",
    "status": "Closed",
    "id": 563
  },
  {
    "name": "Blue Cross Hospital",
    "location": "Jaffna",
    "phone": "+94 212 345 123",
    "status": "Open",
    "id": 564
  },
  {
    "name": "Central Health Clinic",
    "location": "Negombo",
    "phone": "+94 312 987 654",
    "status": "Open",
    "id": 565
  },
  {
    "name": "St. Mary's Medical'",
    "location": "Matara",
    "phone": "+94 412 111 999",
    "status": "Closed",
    "id": 566
  },
  {
    "name": "Golden Care Hospital",
    "location": "Colombo",
    "phone": "+94 112 876 555",
    "status": "Open",
    "id": 567
  },
  {
    "name": "Lanka Health Plus",
    "location": "Anuradhapura",
    "phone": "+94 252 222 777",
    "status": "Open",
    "id": 568
  },
  {
    "name": "Ocean View Medical",
    "location": "Trincomalee",
    "phone": "+94 262 555 111",
    "status": "Closed",
    "id": 569
  },
  {
    "name": "Pearl City Hospital",
    "location": "Colombo",
    "phone": "+94 112 123 789",
    "status": "Open",
    "id": 570
  },
  {
    "name": "Silverline Clinic",
    "location": "Kegalle",
    "phone": "+94 352 111 222",
    "status": "Open",
    "id": 571
  },
  {
    "name": "Medilife Center",
    "location": "Kurunegala",
    "phone": "+94 372 999 444",
    "status": "Closed",
    "id": 572
  },
  {
    "name": "Highland Hospital",
    "location": "Badulla",
    "phone": "+94 552 555 333",
    "status": "Open",
    "id": 573
  },
  {
    "name": "Healing Touch Medical",
    "location": "Ratnapura",
    "phone": "+94 452 222 444",
    "status": "Open",
    "id": 574
  },
  {
    "name": "Healthy Future Clinic",
    "location": "Colombo",
    "phone": "+94 112 321 654",
    "status": "Closed",
    "id": 575
  },
  {
    "name": "Sun Care Hospital",
    "location": "Jaffna",
    "phone": "+94 212 222 888",
    "status": "Open",
    "id": 576
  },
  {
    "name": "BrightMed Hospital",
    "location": "Matara",
    "phone": "+94 412 444 000",
    "status": "Closed",
    "id": 577
  },
  {
    "name": "Unity Health Center",
    "location": "Negombo",
    "phone": "+94 312 345 000",
    "status": "Open",
    "id": 578
  },
  {
    "name": "NovaCare Medical",
    "location": "Kandy",
    "phone": "+94 812 123 456",
    "status": "Open",
    "id": 579
  },
  {
    "name": "LifeBridge Hospital",
    "location": "Galle",
    "phone": "+94 912 111 222",
    "status": "Closed",
    "id": 580
  },
  {
    "name": "City General Hospital",
    "location": "Colombo",
    "phone": "+94 112 345 678",
    "status": "Open",
    "id": 581
  },
  {
    "name": "Sunrise Medical Center",
    "location": "Kandy",
    "phone": "+94 812 234 567",
    "status": "Open",
    "id": 582
  },
  {
    "name": "Lotus Heart Institute",
    "location": "Galle",
    "phone": "+94 912 876 543",
    "status": "Closed",
    "id": 583
  },
  {
    "name": "Blue Cross Hospital",
    "location": "Jaffna",
    "phone": "+94 212 345 123",
    "status": "Open",
    "id": 584
  },
  {
    "name": "Central Health Clinic",
    "location": "Negombo",
    "phone": "+94 312 987 654",
    "status": "Open",
    "id": 585
  },
  {
    "name": "St. Mary's Medical'",
    "location": "Matara",
    "phone": "+94 412 111 999",
    "status": "Closed",
    "id": 586
  },
  {
    "name": "Golden Care Hospital",
    "location": "Colombo",
    "phone": "+94 112 876 555",
    "status": "Open",
    "id": 587
  },
  {
    "name": "Lanka Health Plus",
    "location": "Anuradhapura",
    "phone": "+94 252 222 777",
    "status": "Open",
    "id": 588
  },
  {
    "name": "Ocean View Medical",
    "location": "Trincomalee",
    "phone": "+94 262 555 111",
    "status": "Closed",
    "id": 589
  },
  {
    "name": "Pearl City Hospital",
    "location": "Colombo",
    "phone": "+94 112 123 789",
    "status": "Open",
    "id": 590
  },
  {
    "name": "Silverline Clinic",
    "location": "Kegalle",
    "phone": "+94 352 111 222",
    "status": "Open",
    "id": 591
  },
  {
    "name": "Medilife Center",
    "location": "Kurunegala",
    "phone": "+94 372 999 444",
    "status": "Closed",
    "id": 592
  },
  {
    "name": "Highland Hospital",
    "location": "Badulla",
    "phone": "+94 552 555 333",
    "status": "Open",
    "id": 593
  },
  {
    "name": "Healing Touch Medical",
    "location": "Ratnapura",
    "phone": "+94 452 222 444",
    "status": "Open",
    "id": 594
  },
  {
    "name": "Healthy Future Clinic",
    "location": "Colombo",
    "phone": "+94 112 321 654",
    "status": "Closed",
    "id": 595
  },
  {
    "name": "Sun Care Hospital",
    "location": "Jaffna",
    "phone": "+94 212 222 888",
    "status": "Open",
    "id": 596
  },
  {
    "name": "BrightMed Hospital",
    "location": "Matara",
    "phone": "+94 412 444 000",
    "status": "Closed",
    "id": 597
  },
  {
    "name": "Unity Health Center",
    "location": "Negombo",
    "phone": "+94 312 345 000",
    "status": "Open",
    "id": 598
  },
  {
    "name": "NovaCare Medical",
    "location": "Kandy",
    "phone": "+94 812 123 456",
    "status": "Open",
    "id": 599
  },
  {
    "name": "LifeBridge Hospital",
    "location": "Galle",
    "phone": "+94 912 111 222",
    "status": "Closed",
    "id": 600
  },
  {
    "name": "City General Hospital",
    "location": "Colombo",
    "phone": "+94 112 345 678",
    "status": "Open",
    "id": 601
  },
  {
    "name": "Sunrise Medical Center",
    "location": "Kandy",
    "phone": "+94 812 234 567",
    "status": "Open",
    "id": 602
  },
  {
    "name": "Lotus Heart Institute",
    "location": "Galle",
    "phone": "+94 912 876 543",
    "status": "Closed",
    "id": 603
  },
  {
    "name": "Blue Cross Hospital",
    "location": "Jaffna",
    "phone": "+94 212 345 123",
    "status": "Open",
    "id": 604
  },
  {
    "name": "Central Health Clinic",
    "location": "Negombo",
    "phone": "+94 312 987 654",
    "status": "Open",
    "id": 605
  },
  {
    "name": "St. Mary's Medical'",
    "location": "Matara",
    "phone": "+94 412 111 999",
    "status": "Closed",
    "id": 606
  },
  {
    "name": "Golden Care Hospital",
    "location": "Colombo",
    "phone": "+94 112 876 555",
    "status": "Open",
    "id": 607
  },
  {
    "name": "Lanka Health Plus",
    "location": "Anuradhapura",
    "phone": "+94 252 222 777",
    "status": "Open",
    "id": 608
  },
  {
    "name": "Ocean View Medical",
    "location": "Trincomalee",
    "phone": "+94 262 555 111",
    "status": "Closed",
    "id": 609
  },
  {
    "name": "Pearl City Hospital",
    "location": "Colombo",
    "phone": "+94 112 123 789",
    "status": "Open",
    "id": 610
  },
  {
    "name": "Silverline Clinic",
    "location": "Kegalle",
    "phone": "+94 352 111 222",
    "status": "Open",
    "id": 611
  },
  {
    "name": "Medilife Center",
    "location": "Kurunegala",
    "phone": "+94 372 999 444",
    "status": "Closed",
    "id": 612
  }
]